City_ID,City,Country,Lat,Lng,Max Temp,Humidity,Cloudiness,Wind Speed,Date
0,Tura,IN,25.5198,90.2201,71.67,99,93,3.36,2021-10-21 00:41:26
1,Komsomolskiy,UZ,40.4272,71.7189,58.42,47,31,9.22,2021-10-21 00:43:51
2,Rikitea,PF,-23.1203,-134.9692,74.77,67,41,20.38,2021-10-21 00:46:10
3,Kalat,PK,29.0225,66.5916,54.77,22,0,1.3,2021-10-21 00:44:23
4,Nata,PA,8.3333,-80.5167,76.42,89,53,1.86,2021-10-21 00:46:11
5,Bluff,NZ,-46.6,168.3333,49.59,59,10,9.89,2021-10-21 00:46:11
6,Punta Arenas,CL,-53.15,-70.9167,44.71,61,20,11.5,2021-10-21 00:41:18
7,Busselton,AU,-33.65,115.3333,61.05,64,93,15.97,2021-10-21 00:46:12
8,Mataura,NZ,-46.1927,168.8643,57.96,40,1,2.3,2021-10-21 00:46:12
9,Kapaa,US,22.0752,-159.319,84.18,64,1,1.99,2021-10-21 00:46:13
10,Tuktoyaktuk,CA,69.4541,-133.0374,24.8,93,40,5.75,2021-10-21 00:41:15
11,Dikson,RU,73.5069,80.5464,27.66,57,100,10.38,2021-10-21 00:41:39
12,Morondava,MG,-20.2833,44.2833,72.55,85,5,10.85,2021-10-21 00:44:19
13,Ushuaia,AR,-54.8,-68.3,47.86,40,20,13.8,2021-10-21 00:42:23
14,Vila Franca Do Campo,PT,37.7167,-25.4333,61.21,69,1,1.74,2021-10-21 00:46:14
15,Cidreira,BR,-30.1811,-50.2056,63.18,70,78,16.62,2021-10-21 00:43:38
16,Georgetown,MY,5.4112,100.3354,78.73,89,20,5.01,2021-10-21 00:46:14
17,Arman,RU,59.7,150.1667,16.61,33,15,4.56,2021-10-21 00:46:15
18,Port Alfred,ZA,-33.5906,26.891,62.67,83,87,12.44,2021-10-21 00:46:15
19,Qarqin,AF,37.4185,66.0436,65.64,40,100,12.93,2021-10-21 00:46:16
20,Ilulissat,GL,69.2167,-51.1,26.62,63,20,2.3,2021-10-21 00:45:42
21,Constitucion,CL,-35.3333,-72.4167,50.9,89,81,4.03,2021-10-21 00:46:16
22,Port Elizabeth,ZA,-33.918,25.5701,59.29,100,0,4.61,2021-10-21 00:46:17
23,Estevan,CA,49.1334,-102.9842,32.34,69,1,6.91,2021-10-21 00:45:07
24,Butaritari,KI,3.0707,172.7902,81.36,76,9,12.55,2021-10-21 00:46:17
25,Meulaboh,ID,4.1363,96.1285,75.54,88,100,4.83,2021-10-21 00:46:18
26,Antsohihy,MG,-14.8796,47.9875,72.84,75,19,2.53,2021-10-21 00:46:18
27,Harper,LR,4.375,-7.7169,76.78,89,37,6.35,2021-10-21 00:46:19
28,Bethel,US,41.3712,-73.414,67.05,75,40,4.61,2021-10-21 00:43:10
29,Norman Wells,CA,65.282,-126.8329,35.64,69,40,4.61,2021-10-21 00:46:19
30,Vaini,TO,-21.2,-175.2,74.14,67,95,21.09,2021-10-21 00:46:20
31,Ribeira Grande,PT,38.5167,-28.7,70.27,64,81,4.47,2021-10-21 00:46:20
32,Tucuma,BR,-0.1833,-50.05,79.3,80,5,7.81,2021-10-21 00:46:21
33,Lebu,CL,-37.6167,-73.65,52.54,87,100,5.53,2021-10-21 00:46:00
34,Katangli,RU,51.7102,143.2326,33.71,69,12,10.02,2021-10-21 00:46:21
35,Zhigansk,RU,66.7697,123.3711,22.28,93,100,12.03,2021-10-21 00:46:22
36,Mabama,TZ,-5.1333,32.5333,70.93,52,100,8.52,2021-10-21 00:46:22
37,Avarua,CK,-21.2078,-159.775,77.05,65,75,6.91,2021-10-21 00:46:23
38,Kamenka,RU,51.3223,42.7678,37.81,56,100,14.0,2021-10-21 00:46:23
39,Capitao Poco,BR,-1.7464,-47.0594,74.32,91,11,4.88,2021-10-21 00:46:23
40,Geraldton,AU,-28.7667,114.6,68.41,64,68,16.11,2021-10-21 00:46:24
41,Mar Del Plata,AR,-38.0023,-57.5575,61.09,46,0,3.0,2021-10-21 00:41:40
42,East London,ZA,-33.0153,27.9116,62.38,80,99,12.06,2021-10-21 00:44:23
43,Xichang,CN,27.8964,102.2634,51.67,87,100,3.76,2021-10-21 00:46:25
44,Cape Town,ZA,-33.9258,18.4232,62.11,72,0,3.0,2021-10-21 00:42:44
45,Broken Hill,AU,-31.95,141.4333,78.51,15,87,11.5,2021-10-21 00:46:25
46,Kilemary,RU,56.7783,46.8659,33.42,71,100,12.24,2021-10-21 00:46:26
47,Cabo San Lucas,MX,22.8909,-109.9124,83.61,75,10,6.93,2021-10-21 00:41:38
48,Longyearbyen,SJ,78.2186,15.6401,15.64,67,0,2.3,2021-10-21 00:46:26
49,Clarence Town,AU,-32.5833,151.7833,73.06,62,83,6.91,2021-10-21 00:46:27
50,Qandala,SO,11.472,49.8728,78.76,46,41,1.16,2021-10-21 00:46:27
51,Le Port,RE,-20.9373,55.2919,73.36,86,1,7.38,2021-10-21 00:41:34
52,Koumac,NC,-20.5667,164.2833,67.89,91,100,2.46,2021-10-21 00:46:28
53,Jamestown,US,42.097,-79.2353,60.33,67,90,6.91,2021-10-21 00:45:33
54,Odda,NO,60.0691,6.5457,45.77,100,100,6.62,2021-10-21 00:46:28
55,Avinurme,EE,58.9822,26.8642,53.62,91,100,12.66,2021-10-21 00:46:29
56,Ribeira Brava,PT,32.65,-17.0667,74.03,80,99,7.83,2021-10-21 00:46:29
57,Bintulu,MY,3.1667,113.0333,77.41,94,20,5.99,2021-10-21 00:46:29
58,Sambava,MG,-14.2667,50.1667,68.47,88,11,6.42,2021-10-21 00:44:26
59,Katobu,ID,-4.9408,122.5276,88.18,56,100,1.95,2021-10-21 00:46:30
60,Kaniama,CD,-7.5667,24.1833,65.73,96,100,2.21,2021-10-21 00:46:31
61,Fukue,JP,32.6881,128.8419,55.76,100,90,1.14,2021-10-21 00:46:31
62,Hithadhoo,MV,-0.6,73.0833,81.61,74,100,9.48,2021-10-21 00:46:33
63,Roald,NO,62.5833,6.1333,45.16,87,75,10.36,2021-10-21 00:46:34
64,Hilo,US,19.7297,-155.09,80.33,67,1,10.36,2021-10-21 00:44:21
65,Hermanus,ZA,-34.4187,19.2345,61.9,81,70,4.43,2021-10-21 00:46:35
66,Balkanabat,TM,39.5108,54.3671,52.88,50,11,10.27,2021-10-21 00:46:35
67,Bahia Blanca,AR,-38.7196,-62.2724,69.44,43,0,13.67,2021-10-21 00:43:46
68,Saint George,US,37.1041,-113.5841,70.39,26,1,3.0,2021-10-21 00:46:37
69,Bredasdorp,ZA,-34.5322,20.0403,60.28,98,100,3.67,2021-10-21 00:46:37
70,Bambous Virieux,MU,-20.3428,57.7575,71.85,88,40,6.91,2021-10-21 00:42:23
71,Troitskoye,RU,52.9821,84.6757,40.42,55,97,7.92,2021-10-21 00:46:38
72,Raudeberg,NO,61.9875,5.1352,41.86,93,100,1.99,2021-10-21 00:44:25
73,Arraial Do Cabo,BR,-22.9661,-42.0278,62.56,100,75,3.44,2021-10-21 00:46:40
74,Codrington,AU,-38.2667,141.9667,68.7,62,97,14.43,2021-10-21 00:46:40
75,Nikolskoye,RU,59.7035,30.7861,54.01,93,100,11.77,2021-10-21 00:46:41
76,Atuona,PF,-9.8,-139.0333,77.13,81,10,14.72,2021-10-21 00:46:41
77,Havelock,US,34.8791,-76.9013,71.94,83,0,4.21,2021-10-21 00:46:42
78,Olafsvik,IS,64.8945,-23.7142,43.27,77,61,23.55,2021-10-21 00:46:42
79,Saldanha,ZA,-33.0117,17.9442,59.05,88,97,19.22,2021-10-21 00:46:43
80,Sitka,US,57.0531,-135.33,48.09,81,90,19.57,2021-10-21 00:46:43
81,Agadir,MA,30.4202,-9.5982,64.85,40,84,2.13,2021-10-21 00:46:43
82,Khandagayty,RU,50.7333,92.05,30.43,70,8,4.9,2021-10-21 00:46:44
83,Erin,US,36.3184,-87.6947,68.27,87,77,6.13,2021-10-21 00:42:11
84,Narsaq,GL,60.9167,-46.05,30.42,36,0,5.86,2021-10-21 00:46:44
85,Saint-Joseph,RE,-21.3667,55.6167,71.96,72,20,8.19,2021-10-21 00:46:45
86,Lobito,AO,-12.3481,13.5456,74.35,84,100,6.73,2021-10-21 00:46:45
87,Ust-Kuyga,RU,70.0167,135.6,10.42,95,100,5.3,2021-10-21 00:46:46
88,Wanxian,CN,30.8039,108.3897,56.89,79,100,4.56,2021-10-21 00:46:46
89,Monrovia,LR,6.3005,-10.7969,77.92,86,100,6.62,2021-10-21 00:46:24
90,San Cristobal,VE,7.7669,-72.225,71.78,91,52,1.97,2021-10-21 00:46:47
91,Dingle,PH,10.9995,122.6711,83.3,80,89,6.67,2021-10-21 00:46:47
92,Albany,US,42.6001,-73.9662,64.98,65,37,4.72,2021-10-21 00:46:48
93,Srednekolymsk,RU,67.45,153.6833,1.26,86,48,2.44,2021-10-21 00:46:48
94,Buala,SB,-8.145,159.5921,86.32,66,56,5.57,2021-10-21 00:46:49
95,Sokoni,TZ,-6.4333,39.55,76.73,79,65,8.84,2021-10-21 00:46:49
96,Diffa,NE,13.3154,12.6113,85.35,46,100,11.52,2021-10-21 00:46:33
97,Biograd Na Moru,HR,43.9433,15.4519,59.76,81,100,10.8,2021-10-21 00:46:50
98,Tiksi,RU,71.6872,128.8694,11.62,94,100,5.84,2021-10-21 00:46:50
99,Talnakh,RU,69.4865,88.3972,23.23,95,99,10.09,2021-10-21 00:46:51
100,Tasiilaq,GL,65.6145,-37.6368,50.16,43,81,10.65,2021-10-21 00:46:51
101,Hobart,AU,-42.8794,147.3294,69.06,52,75,4.0,2021-10-21 00:46:52
102,Gizo,SB,-8.103,156.8419,83.55,73,99,3.15,2021-10-21 00:46:53
103,Severo-Kurilsk,RU,50.6789,156.125,37.18,61,79,21.21,2021-10-21 00:46:53
104,Barry,GB,51.4067,-3.2694,52.48,88,63,18.41,2021-10-21 00:46:54
105,Denpasar,ID,-8.65,115.2167,83.86,83,40,4.61,2021-10-21 00:42:42
106,Vyshhorod,UA,50.5848,30.4898,54.1,66,100,14.43,2021-10-21 00:46:54
107,Chokurdakh,RU,70.6333,147.9167,-13.54,95,88,3.09,2021-10-21 00:46:55
108,Oistins,BB,13.0667,-59.5333,82.49,78,40,19.57,2021-10-21 00:46:55
109,Prestea,GH,5.4327,-2.1428,73.74,98,100,2.17,2021-10-21 00:46:56
110,Sur,OM,22.5667,59.5289,77.54,69,80,10.16,2021-10-21 00:46:56
111,Havoysund,NO,70.9963,24.6622,29.28,64,100,29.82,2021-10-21 00:46:57
112,Castro,BR,-24.7911,-50.0119,51.13,94,15,9.19,2021-10-21 00:46:58
113,Tome,CL,-36.6167,-72.95,54.21,91,100,4.92,2021-10-21 00:46:58
114,Barrow,US,71.2906,-156.7887,28.42,86,90,21.85,2021-10-21 00:46:59
115,Rocha,UY,-34.4833,-54.3333,50.85,91,0,6.64,2021-10-21 00:46:59
116,Hasaki,JP,35.7333,140.8333,63.28,53,100,13.0,2021-10-21 00:47:00
117,Gamba,GA,-2.65,10.0,75.58,87,100,3.76,2021-10-21 00:47:00
118,Vila Velha,BR,-20.3297,-40.2925,66.15,82,75,9.22,2021-10-21 00:47:02
119,Puerto Ayora,EC,-0.7393,-90.3518,69.73,88,100,8.37,2021-10-21 00:47:03
120,Mantua,IT,45.1667,10.7833,60.28,92,100,5.99,2021-10-21 00:47:03
121,Matay,EG,28.419,30.7792,66.16,68,53,12.77,2021-10-21 00:47:04
122,Birjand,IR,32.8663,59.2211,48.67,13,0,6.91,2021-10-21 00:47:05
123,Derzhavinsk,KZ,51.1,66.3167,40.95,74,100,17.67,2021-10-21 00:47:05
124,Kodiak,US,57.79,-152.4072,44.11,81,90,12.66,2021-10-21 00:47:06
125,Yellowknife,CA,62.456,-114.3525,41.56,80,20,11.5,2021-10-21 00:42:18
126,Port Lincoln,AU,-34.7333,135.8667,66.51,57,5,11.7,2021-10-21 00:45:02
127,Garden City,US,42.3256,-83.331,65.59,67,75,8.05,2021-10-21 00:47:07
128,Rabat,MA,33.9911,-6.8401,68.04,97,40,0.0,2021-10-21 00:42:12
129,Vao,NC,-22.6667,167.4833,70.74,93,100,16.11,2021-10-21 00:47:07
130,Lahat,ID,-3.8,103.5333,77.85,89,43,0.74,2021-10-21 00:47:08
131,Vardo,NO,70.3705,31.1107,33.76,80,100,24.99,2021-10-21 00:47:08
132,Boyolangu,ID,-8.1181,111.8935,82.85,70,100,5.88,2021-10-21 00:47:09
133,Souillac,MU,-20.5167,57.5167,71.98,88,40,6.91,2021-10-21 00:47:09
134,Luderitz,NA,-26.6481,15.1594,55.96,82,37,10.56,2021-10-21 00:47:09
135,Faanui,PF,-16.4833,-151.75,79.34,78,0,8.88,2021-10-21 00:47:10
136,Egvekinot,RU,66.3167,-179.1667,22.46,88,100,5.59,2021-10-21 00:47:10
137,Adrar,MR,20.5022,-10.0711,74.79,23,4,11.27,2021-10-21 00:47:11
138,Villanueva De La Serena,ES,38.9766,-5.7974,62.83,81,0,5.23,2021-10-21 00:47:11
139,Kavieng,PG,-2.5744,150.7967,83.35,73,85,5.97,2021-10-21 00:47:12
140,Amazar,RU,53.858,120.875,34.9,58,71,2.1,2021-10-21 00:47:12
141,Oranjemund,NA,-28.55,16.4333,57.06,85,0,6.08,2021-10-21 00:47:13
142,Lompoc,US,34.6391,-120.4579,69.01,72,1,13.8,2021-10-21 00:47:13
143,Warrington,GB,53.3925,-2.5802,49.15,89,74,1.99,2021-10-21 00:44:58
144,Asau,RO,46.4333,26.4,43.72,72,6,7.61,2021-10-21 00:47:14
145,Minbu,MM,20.1833,94.8833,77.45,88,95,8.59,2021-10-21 00:47:14
146,Pangody,RU,65.85,74.4859,30.56,86,100,3.62,2021-10-21 00:47:15
147,Kampong Chhnang,KH,12.1667,104.55,77.85,86,100,1.54,2021-10-21 00:47:16
148,Pombas,CV,17.1503,-25.0201,74.98,73,0,9.22,2021-10-21 00:47:16
149,Lixourion,GR,38.2019,20.4314,64.0,68,0,4.54,2021-10-21 00:47:17
150,Victoria,HK,22.2855,114.1577,82.45,82,100,1.01,2021-10-21 00:43:22
151,Goure,NE,13.9835,10.2704,85.01,19,5,4.23,2021-10-21 00:47:17
152,Ust-Nera,RU,64.5667,143.2,7.93,87,89,2.51,2021-10-21 00:47:18
153,Sao Filipe,CV,14.8961,-24.4956,82.42,57,0,7.49,2021-10-21 00:43:14
154,Genoa,IT,44.4129,8.9573,66.65,85,75,1.99,2021-10-21 00:47:19
155,Nokaneng,BW,-19.6667,22.2667,74.44,36,90,8.81,2021-10-21 00:47:19
156,San Jose Del Guaviare,CO,2.5729,-72.6459,72.77,97,98,2.28,2021-10-21 00:47:20
157,Upernavik,GL,72.7868,-56.1549,32.72,99,100,5.41,2021-10-21 00:47:20
158,Saint-Philippe,RE,-21.3585,55.7679,72.95,76,38,9.98,2021-10-21 00:47:20
159,Santarem,BR,-2.4431,-54.7083,78.93,94,20,3.44,2021-10-21 00:45:26
160,Mwinilunga,ZM,-11.7358,24.4293,66.99,69,86,3.13,2021-10-21 00:47:21
161,Antofagasta,CL,-23.65,-70.4,58.28,77,40,6.35,2021-10-21 00:44:05
162,Dire Dawa,ET,9.5931,41.8661,66.63,27,67,4.32,2021-10-21 00:47:22
163,Hatfield,GB,51.7634,-0.2242,49.24,94,75,16.11,2021-10-21 00:47:22
164,Iquique,CL,-20.2208,-70.1431,59.04,71,11,4.88,2021-10-21 00:44:53
165,Hegang,CN,47.4,130.3667,39.96,44,6,4.99,2021-10-21 00:47:23
166,Tilichiki,RU,60.4667,166.1,13.41,77,100,6.53,2021-10-21 00:47:23
167,Saryg-Sep,RU,51.5,95.6,29.95,57,0,3.33,2021-10-21 00:47:24
168,Naryan-Mar,RU,67.6713,53.087,28.87,75,100,8.61,2021-10-21 00:47:24
169,Mouzouras,GR,35.5333,24.15,61.43,77,20,0.0,2021-10-21 00:47:25
170,Lagoa,PT,39.05,-27.9833,68.5,62,1,1.07,2021-10-21 00:47:25
171,Tual,ID,-5.6667,132.75,82.69,77,98,2.84,2021-10-21 00:47:26
172,Venado Tuerto,AR,-33.7456,-61.9688,65.77,42,6,8.41,2021-10-21 00:47:26
173,Bengkulu,ID,-3.8004,102.2655,78.21,82,21,2.3,2021-10-21 00:43:10
174,Khatanga,RU,71.9667,102.5,22.89,97,100,3.71,2021-10-21 00:47:27
175,Coalville,GB,52.7167,-1.3667,47.61,89,0,8.05,2021-10-21 00:47:27
176,Iqaluit,CA,63.7506,-68.5145,31.73,80,90,5.99,2021-10-21 00:47:28
177,Kirkwall,GB,58.9848,-2.9587,46.45,76,75,32.21,2021-10-21 00:47:28
178,Pacific Grove,US,36.6177,-121.9166,64.29,78,90,1.01,2021-10-21 00:47:29
179,Flinders,AU,-34.5833,150.8552,74.8,69,36,4.0,2021-10-21 00:47:29
180,Camacha,PT,33.0833,-16.3333,70.56,83,20,9.22,2021-10-21 00:47:29
181,College,US,64.8569,-147.8028,40.98,52,75,0.0,2021-10-21 00:47:30
182,Airai,TL,-8.9266,125.4092,77.9,35,75,1.99,2021-10-21 00:47:30
183,Labuhan,ID,-6.8844,112.2051,83.59,70,100,4.54,2021-10-21 00:47:32
184,Thompson,CA,55.7435,-97.8558,28.56,59,75,4.61,2021-10-21 00:47:40
185,Torbay,CA,47.6666,-52.7314,48.97,95,90,12.66,2021-10-21 00:47:40
186,Thomaston,US,32.8882,-84.3266,65.08,85,1,0.0,2021-10-21 00:47:41
187,Tucurui,BR,-3.7661,-49.6725,77.11,88,44,1.7,2021-10-21 00:47:41
188,Ola,RU,59.5833,151.2833,16.99,33,2,3.47,2021-10-21 00:47:42
189,Andenes,NO,69.3143,16.1194,32.07,86,100,25.32,2021-10-21 00:47:42
190,Kajaani,FI,64.2273,27.7285,35.65,100,90,4.61,2021-10-21 00:47:43
191,Alice Springs,AU,-23.7,133.8833,80.15,26,0,10.36,2021-10-21 00:42:52
192,Winona,US,43.9666,-91.7668,62.49,94,90,0.0,2021-10-21 00:47:44
193,Okhotsk,RU,59.3833,143.3,16.02,58,97,9.13,2021-10-21 00:47:44
194,Vostok,RU,46.4856,135.8833,30.78,48,0,2.89,2021-10-21 00:47:44
195,Turukhansk,RU,65.8167,87.9833,32.14,88,100,4.16,2021-10-21 00:47:45
196,Thinadhoo,MV,0.5333,72.9333,81.21,77,100,8.7,2021-10-21 00:47:46
197,Nome,US,64.5011,-165.4064,35.67,93,90,10.36,2021-10-21 00:47:47
198,Qaanaaq,GL,77.484,-69.3632,10.13,96,49,4.81,2021-10-21 00:47:47
199,Kruisfontein,ZA,-34.0033,24.7314,61.83,61,100,2.53,2021-10-21 00:47:48
200,Mahebourg,MU,-20.4081,57.7,71.89,88,40,6.91,2021-10-21 00:47:48
201,Durant,US,33.994,-96.3708,76.48,77,75,0.0,2021-10-21 00:44:47
202,Pisco,PE,-13.7,-76.2167,62.65,82,0,16.11,2021-10-21 00:43:09
203,Darnah,LY,32.767,22.6367,67.05,75,0,10.29,2021-10-21 00:47:49
204,Ajdabiya,LY,30.7554,20.2263,66.87,56,4,10.76,2021-10-21 00:47:50
205,Poco Das Trincheiras,BR,-9.3125,-37.2856,76.6,69,12,6.26,2021-10-21 00:47:51
206,Provideniya,RU,64.3833,-173.3,32.11,69,0,2.24,2021-10-21 00:47:51
207,Gebze,TR,40.8028,29.4307,49.06,93,0,4.61,2021-10-21 00:47:51
208,Quatre Cocos,MU,-20.2078,57.7625,71.71,80,14,8.25,2021-10-21 00:47:52
209,Machico,PT,32.7,-16.7667,74.03,81,40,12.66,2021-10-21 00:47:52
210,Isangel,VU,-19.55,169.2667,80.71,78,100,8.05,2021-10-21 00:47:53
211,Talara,PE,-4.5772,-81.2719,64.92,90,54,13.2,2021-10-21 00:43:50
212,Leshukonskoye,RU,64.8989,45.7622,30.42,69,100,12.57,2021-10-21 00:47:53
213,Yarada,IN,17.65,83.2667,79.12,100,20,2.3,2021-10-21 00:47:54
214,Manoel Urbano,BR,-8.8389,-69.2597,73.62,95,81,1.9,2021-10-21 00:47:54
215,Pehowa,IN,29.9833,76.5833,68.65,51,0,4.32,2021-10-21 00:47:55
216,Kem,RU,64.9555,34.5793,32.13,97,100,16.73,2021-10-21 00:47:55
217,Urumqi,CN,43.801,87.6005,40.15,52,0,6.71,2021-10-21 00:47:55
218,Canchungo,GW,12.0672,-16.0333,80.67,85,99,5.1,2021-10-21 00:47:56
219,Saskylakh,RU,71.9167,114.0833,14.09,95,100,5.93,2021-10-21 00:47:56
220,Karlstad,SE,59.3793,13.5036,48.76,87,20,12.66,2021-10-21 00:44:49
221,Black River,JM,18.0264,-77.8487,79.99,82,99,2.86,2021-10-21 00:47:57
222,Diamantino,BR,-14.4086,-56.4461,76.82,81,86,1.81,2021-10-21 00:47:57
223,Grindavik,IS,63.8424,-22.4338,43.27,81,75,21.85,2021-10-21 00:47:58
224,Zeya,RU,53.75,127.2667,39.4,54,0,6.31,2021-10-21 00:47:58
225,Aklavik,CA,68.2191,-135.0107,29.12,84,100,7.25,2021-10-21 00:47:59
226,Aswan,EG,24.0934,32.907,72.91,38,0,15.59,2021-10-21 00:47:59
227,Leshan,CN,29.5623,103.7639,55.72,92,100,1.83,2021-10-21 00:47:59
228,Nantucket,US,41.2835,-70.0995,64.96,88,1,6.91,2021-10-21 00:48:00
229,Aykhal,RU,66.0,111.5,35.28,95,100,20.33,2021-10-21 00:48:00
230,Bowen,AU,-20.0167,148.2333,84.42,72,71,12.48,2021-10-21 00:48:01
231,Puerto Escondido,MX,15.85,-97.0667,77.83,69,90,0.0,2021-10-21 00:43:59
232,Sampit,ID,-2.5333,112.95,81.21,83,100,0.78,2021-10-21 00:48:02
233,Pierre,US,44.3683,-100.351,40.12,71,90,1.99,2021-10-21 00:45:00
234,Kungurtug,RU,50.5994,97.5228,25.7,64,2,2.8,2021-10-21 00:48:03
235,Berlevag,NO,70.8578,29.0864,33.85,71,100,24.79,2021-10-21 00:44:02
236,Honningsvag,NO,70.9821,25.9704,35.56,62,100,29.91,2021-10-21 00:48:04
237,Yulara,AU,-25.2406,130.9889,80.44,29,0,11.5,2021-10-21 00:48:04
238,Ulaangom,MN,49.9811,92.0667,30.7,52,5,3.13,2021-10-21 00:48:05
239,Kavaratti,IN,10.5669,72.642,82.13,73,100,8.81,2021-10-21 00:48:05
240,Santa Cruz,BO,-17.8,-63.1667,78.26,50,92,5.75,2021-10-21 00:48:05
241,Aleppo,SY,36.25,37.5,59.29,35,0,3.98,2021-10-21 00:48:06
242,Yabelo,ET,4.8833,38.0833,61.21,76,100,5.68,2021-10-21 00:48:06
243,Malakal,SS,9.5334,31.6605,72.57,81,41,5.3,2021-10-21 00:48:07
244,Atikokan,CA,48.7555,-91.6216,36.75,64,100,6.06,2021-10-21 00:48:08
245,Bac Giang,VN,21.2667,106.2,78.87,89,98,17.02,2021-10-21 00:48:08
246,Dwarka,IN,22.2394,68.9678,79.0,56,5,7.25,2021-10-21 00:48:08
247,Vanderhoof,CA,54.0166,-124.0198,41.68,81,100,2.91,2021-10-21 00:45:06
248,Rognan,NO,67.0953,15.3878,34.88,91,100,8.37,2021-10-21 00:48:09
249,Wundanyi,KE,-3.4019,38.364,57.0,89,54,4.68,2021-10-21 00:48:10
250,Marystown,CA,47.1666,-55.1483,50.86,100,100,10.31,2021-10-21 00:48:10
251,Caravelas,BR,-17.7125,-39.2481,71.38,92,100,15.75,2021-10-21 00:48:10
252,Leningradskiy,RU,69.3833,178.4167,26.2,96,100,16.73,2021-10-21 00:48:11
253,Abha,SA,18.2164,42.5053,60.62,26,0,0.0,2021-10-21 00:48:12
254,Mitsamiouli,KM,-11.3847,43.2844,76.17,77,72,1.52,2021-10-21 00:48:12
255,Key West,US,24.5557,-81.7826,81.0,69,75,10.36,2021-10-21 00:48:13
256,Carnarvon,AU,-24.8667,113.6333,69.87,60,90,12.66,2021-10-21 00:48:14
257,Golaghat,IN,26.5167,93.9667,73.4,98,100,5.12,2021-10-21 00:48:14
258,Klaksvik,FO,62.2266,-6.589,41.92,66,100,32.55,2021-10-21 00:48:15
259,Singaraja,ID,-8.112,115.0882,85.96,65,100,1.32,2021-10-21 00:48:15
260,Strezhevoy,RU,60.7333,77.5889,35.58,83,100,6.44,2021-10-21 00:48:15
261,Beringovskiy,RU,63.05,179.3167,18.84,74,70,4.09,2021-10-21 00:48:16
262,Pevek,RU,69.7008,170.3133,18.16,91,100,13.13,2021-10-21 00:48:17
263,Puyang,CN,29.4603,119.8861,52.77,96,100,2.89,2021-10-21 00:48:17
264,Half Moon Bay,US,37.4636,-122.4286,66.2,85,90,1.01,2021-10-21 00:48:17
265,Port Hedland,AU,-20.3167,118.5667,86.05,21,0,13.8,2021-10-21 00:48:18
266,Ahipara,NZ,-35.1667,173.1667,61.7,96,100,8.57,2021-10-21 00:44:05
267,Douentza,ML,14.9951,-2.9517,84.25,28,100,6.69,2021-10-21 00:48:18
268,Aksu,CN,41.1231,80.2644,49.53,31,20,3.24,2021-10-21 00:48:19
269,Sergeyevka,KZ,53.88,67.4158,43.3,71,100,16.11,2021-10-21 00:48:19
270,Bingen,DE,48.1113,9.2724,57.33,80,100,9.35,2021-10-21 00:48:20
271,Sabaudia,IT,41.3003,13.0282,59.76,70,42,3.62,2021-10-21 00:48:20
272,Lugovoy,KZ,42.9472,72.7644,53.58,41,5,6.98,2021-10-21 00:48:20
273,Takestan,IR,36.0696,49.6959,48.29,81,52,13.53,2021-10-21 00:48:21
274,Damara,CF,4.9608,18.7035,69.87,98,100,2.24,2021-10-21 00:48:21
275,Bandarbeyla,SO,9.4942,50.8122,75.92,86,19,6.46,2021-10-21 00:48:22
276,Methoni,GR,36.8197,21.7049,61.21,68,3,4.45,2021-10-21 00:48:22
277,Alexandria,EG,31.2156,29.9553,71.56,64,20,10.36,2021-10-21 00:47:57
278,Zemio,CF,5.0314,25.1361,69.26,98,100,2.59,2021-10-21 00:48:23
279,Kathu,TH,7.9178,98.3332,82.69,99,95,6.82,2021-10-21 00:48:23
280,Chuy,UY,-33.6971,-53.4616,55.49,79,3,7.74,2021-10-21 00:48:24
281,Atlantic City,US,39.3643,-74.4229,66.97,70,1,6.91,2021-10-21 00:47:08
282,Alice Town,BS,25.7167,-79.3,80.08,69,100,20.0,2021-10-21 00:48:24
283,Necochea,AR,-38.5473,-58.7368,58.03,91,0,11.25,2021-10-21 00:48:25
284,Fianarantsoa,MG,-21.4333,47.0833,60.89,96,100,2.24,2021-10-21 00:48:25
285,Cururupu,BR,-1.8283,-44.8683,76.1,87,53,3.44,2021-10-21 00:48:26
286,Thap Than,TH,15.4606,99.8917,79.86,83,74,1.68,2021-10-21 00:48:26
287,Lewiston,US,44.1003,-70.2148,54.52,85,75,4.61,2021-10-21 00:46:32
288,Atasu,KZ,48.6814,71.6433,45.66,47,100,10.67,2021-10-21 00:48:27
289,Lockhart,US,28.6194,-81.4426,75.92,75,1,4.61,2021-10-21 00:48:27
290,Inongo,CD,-1.95,18.2667,71.15,93,100,3.74,2021-10-21 00:48:28
291,Tyumentsevo,RU,53.3224,81.498,41.68,55,95,9.98,2021-10-21 00:48:28
292,Kormilovka,RU,55.0026,74.1028,38.95,56,100,9.42,2021-10-21 00:48:28
293,Krasnokamensk,RU,50.0979,118.0369,28.04,79,5,3.27,2021-10-21 00:48:29
294,Abonnema,NG,4.7084,6.7931,76.32,91,98,1.57,2021-10-21 00:48:29
295,Gasan,PH,13.3237,121.8467,82.11,79,52,4.81,2021-10-21 00:48:30
296,Karratha,AU,-20.7377,116.8463,80.6,27,0,6.4,2021-10-21 00:48:30
297,Cayenne,GF,4.9333,-52.3333,83.08,81,0,5.01,2021-10-21 00:48:31
298,Stykkisholmur,IS,65.0757,-22.7297,39.25,76,100,16.69,2021-10-21 00:48:31
299,Ossora,RU,59.2353,163.0719,22.41,58,81,9.64,2021-10-21 00:48:31
300,Taruma,BR,-22.7467,-50.5772,62.8,72,0,12.15,2021-10-21 00:48:32
301,Mastung,PK,29.7994,66.845,59.52,23,0,1.92,2021-10-21 00:48:32
302,Maniitsoq,GL,65.4167,-52.9,32.68,70,7,14.25,2021-10-21 00:48:33
303,Mudhol,IN,16.35,75.2833,72.37,73,99,6.53,2021-10-21 00:48:33
304,Carpinteria,US,34.3989,-119.5185,69.82,68,100,4.83,2021-10-21 00:48:20
305,Te Anau,NZ,-45.4167,167.7167,51.91,66,15,3.22,2021-10-21 00:48:34
306,Foumban,CM,5.7291,10.9001,62.53,96,100,2.68,2021-10-21 00:48:35
307,Sojat,IN,25.9167,73.6667,70.05,55,0,7.65,2021-10-21 00:48:35
308,Esperance,AU,-33.8667,121.9,62.44,60,3,20.07,2021-10-21 00:48:35
309,Isla Vista,US,34.4133,-119.861,69.42,72,1,12.66,2021-10-21 00:48:37
310,Ghanzi,BW,-21.5667,21.7833,68.59,48,99,6.8,2021-10-21 00:48:38
311,Ancud,CL,-41.8697,-73.8203,51.33,88,100,8.97,2021-10-21 00:48:38
312,Yerbogachen,RU,61.2767,108.0108,36.09,87,100,9.82,2021-10-21 00:48:39
313,San Ignacio,BZ,17.1561,-89.0714,80.74,89,40,6.91,2021-10-21 00:48:39
314,Yvetot,FR,49.6174,0.7581,52.93,85,100,25.08,2021-10-21 00:48:40
315,Brae,GB,60.3964,-1.353,42.71,61,88,32.77,2021-10-21 00:48:41
316,Kalmunai,LK,7.4167,81.8167,79.38,83,87,7.05,2021-10-21 00:48:41
317,Tingo Maria,PE,-9.2895,-76.0088,69.46,92,53,1.68,2021-10-21 00:48:42
318,Kupang,ID,-10.1667,123.5833,86.58,74,20,6.91,2021-10-21 00:48:42
319,Coquimbo,CL,-29.9533,-71.3436,56.93,76,0,5.75,2021-10-21 00:48:42
320,Ankang,CN,32.68,109.0172,49.82,85,100,0.69,2021-10-21 00:48:43
321,Sisophon,KH,13.5859,102.9737,77.86,91,100,1.61,2021-10-21 00:48:43
322,Roebourne,AU,-20.7833,117.1333,80.64,26,0,6.13,2021-10-21 00:48:44
323,Bairiki,KI,1.3292,172.9752,87.8,62,20,13.8,2021-10-21 00:48:44
324,Namatanai,PG,-3.6667,152.4333,84.69,70,68,5.84,2021-10-21 00:48:45
325,Dali,CN,25.7,100.1833,61.29,94,100,3.47,2021-10-21 00:48:45
326,New Norfolk,AU,-42.7826,147.0587,68.72,46,100,3.0,2021-10-21 00:48:46
327,Bayevo,RU,53.2833,80.7667,40.46,57,100,7.76,2021-10-21 00:48:46
328,Igrim,RU,63.1906,64.4162,30.16,86,17,4.03,2021-10-21 00:48:47
329,Paamiut,GL,61.994,-49.6678,35.8,50,0,1.81,2021-10-21 00:48:47
330,Miri,MY,4.4148,114.0089,77.14,88,20,3.44,2021-10-21 00:48:47
331,Ust-Omchug,RU,61.15,149.6333,-4.38,83,10,2.66,2021-10-21 00:48:48
332,Chiredzi,ZW,-21.05,31.6667,60.24,68,5,3.67,2021-10-21 00:48:48
333,Namibe,AO,-15.1961,12.1522,65.25,89,66,9.66,2021-10-21 00:48:49
334,Puerto Ayacucho,VE,5.6639,-67.6236,75.06,91,100,2.46,2021-10-21 00:48:49
335,Lubbock,US,33.6001,-101.8338,73.65,25,1,0.0,2021-10-21 00:46:17
336,Kaitangata,NZ,-46.2817,169.8464,53.38,54,20,7.58,2021-10-21 00:48:50
337,Port Hueneme,US,34.1478,-119.1951,74.48,66,1,18.41,2021-10-21 00:48:50
338,Fallon,US,39.4735,-118.7774,65.43,26,75,6.91,2021-10-21 00:48:51
339,Sola,VU,-13.8833,167.55,86.67,79,90,8.05,2021-10-21 00:48:51
340,Cuamba,MZ,-14.8031,36.5372,67.35,78,100,4.07,2021-10-21 00:48:52
341,Katsuura,JP,35.1333,140.3,64.18,59,100,9.66,2021-10-21 00:48:52
342,Eureka,US,40.8021,-124.1637,64.2,66,87,3.0,2021-10-21 00:48:52
343,Cherskiy,RU,68.75,161.3,-1.89,100,100,5.28,2021-10-21 00:48:53
344,Asfi,MA,32.2994,-9.2372,67.73,95,100,8.66,2021-10-21 00:48:53
345,Shelabolikha,RU,53.4131,82.6167,42.26,51,89,10.69,2021-10-21 00:48:54
346,Kapuskasing,CA,49.4169,-82.4331,33.89,75,90,8.05,2021-10-21 00:48:54
347,Ostrovnoy,RU,68.0531,39.5131,31.73,73,100,18.12,2021-10-21 00:48:55
348,Taoudenni,ML,22.6783,-3.9836,73.89,27,0,12.57,2021-10-21 00:48:55
349,Deputatskiy,RU,69.3,139.9,2.91,96,99,1.16,2021-10-21 00:48:56
350,Opuwo,NA,-18.0607,13.84,63.77,43,4,2.75,2021-10-21 00:48:56
351,Taltal,CL,-25.4,-70.4833,59.83,74,0,4.79,2021-10-21 00:48:56
352,Nanortalik,GL,60.1432,-45.2371,36.52,57,0,3.33,2021-10-21 00:48:57
353,Safford,US,32.834,-109.7076,83.32,15,1,0.0,2021-10-21 00:48:57
354,Spirit River,CA,55.7833,-118.8361,45.03,67,0,2.95,2021-10-21 00:48:58
355,La Ronge,CA,55.1001,-105.2842,41.25,52,40,8.05,2021-10-21 00:48:58
356,Kehychivka,UA,49.2866,35.7615,46.62,84,94,16.28,2021-10-21 00:48:59
357,Dhidhdhoo,MV,6.8833,73.1,81.77,75,100,10.31,2021-10-21 00:48:59
358,Lexington,US,37.9887,-84.4777,62.49,75,1,6.91,2021-10-21 00:47:37
359,Hovin,NO,63.1055,10.225,42.84,86,100,1.7,2021-10-21 00:49:00
360,Linxia,CN,35.6003,103.2064,41.45,71,98,1.88,2021-10-21 00:49:01
361,Ladario,BR,-19.0047,-57.6017,79.79,34,78,4.23,2021-10-21 00:49:01
362,Kidal,ML,18.4411,1.4078,79.72,17,0,10.22,2021-10-21 00:49:03
363,Henties Bay,NA,-22.116,14.2845,59.86,95,69,9.75,2021-10-21 00:49:04
364,Inuvik,CA,68.3499,-133.7218,29.16,83,75,2.3,2021-10-21 00:49:04
365,Alofi,NU,-19.0595,-169.9187,80.49,57,99,18.41,2021-10-21 00:49:04
366,Palestine,PS,31.9216,35.2033,60.22,92,57,3.18,2021-10-21 00:49:05
367,Ponta Do Sol,PT,32.6667,-17.1,74.03,79,99,6.96,2021-10-21 00:49:05
368,Haines Junction,CA,60.7522,-137.5108,35.55,93,88,1.14,2021-10-21 00:49:06
369,Tabuk,PH,17.4189,121.4443,79.93,82,57,3.62,2021-10-21 00:49:06
370,Korsakov,RU,46.6328,142.7813,37.24,62,100,13.38,2021-10-21 00:49:06
371,Safaga,EG,26.7292,33.9365,73.35,52,0,20.58,2021-10-21 00:49:07
372,Fortuna,US,40.5982,-124.1573,64.18,68,20,4.0,2021-10-21 00:49:07
373,Bartica,GY,6.4,-58.6167,79.12,93,6,2.77,2021-10-21 00:49:08
374,Sapernoye,RU,60.7167,29.9505,53.2,95,100,14.92,2021-10-21 00:49:08
375,Seoul,KR,37.5683,126.9778,47.64,81,0,2.3,2021-10-21 00:44:10
376,Ziarat,PK,30.3823,67.7282,52.68,23,0,4.5,2021-10-21 00:49:09
377,Ipixuna,BR,-1.7625,-48.8043,80.55,91,14,4.47,2021-10-21 00:49:09
378,Mattru,SL,7.6244,-11.8332,73.58,98,100,2.28,2021-10-21 00:49:10
379,Maldonado,UY,-34.6667,-54.9167,58.39,87,0,8.95,2021-10-21 00:49:10
380,Touros,BR,-5.1989,-35.4608,81.5,84,81,9.17,2021-10-21 00:49:11
381,Ayorou,NE,14.7308,0.9174,88.32,37,100,6.33,2021-10-21 00:49:11
382,Tukuyu,TZ,-9.25,33.65,59.79,84,49,2.06,2021-10-21 00:49:12
383,Nioro,GM,13.35,-15.75,75.16,86,93,5.08,2021-10-21 00:49:12
384,Odweyne,SO,9.4092,45.064,71.62,28,7,10.29,2021-10-21 00:49:13
385,Decatur,US,39.8403,-88.9548,71.71,64,1,12.66,2021-10-21 00:46:23
386,Charters Towers,AU,-20.1,146.2667,91.63,27,79,8.16,2021-10-21 00:49:13
387,Puerto Leguizamo,CO,-0.1934,-74.7819,72.32,99,100,2.3,2021-10-21 00:49:14
388,Wenatchee,US,47.4235,-120.3103,59.38,67,20,0.0,2021-10-21 00:49:14
389,Saint-Georges,GD,12.0564,-61.7485,78.48,89,20,11.5,2021-10-21 00:49:15
390,Fairbanks,US,64.8378,-147.7164,41.0,52,75,0.0,2021-10-21 00:49:15
391,Richards Bay,ZA,-28.783,32.0377,62.06,74,1,10.02,2021-10-21 00:49:16
392,Sikonge,TZ,-5.6333,32.7667,69.75,53,78,7.31,2021-10-21 00:49:16
393,Atambua,ID,-9.1061,124.8925,86.63,50,33,2.66,2021-10-21 00:49:17
394,Broome,US,42.2506,-75.833,59.38,70,15,3.42,2021-10-21 00:49:17
395,Port-Gentil,GA,-0.7193,8.7815,77.56,86,100,11.25,2021-10-21 00:49:18
396,Plover,US,44.4564,-89.544,56.39,81,90,10.0,2021-10-21 00:45:08
397,Tantoyuca,MX,21.35,-98.2333,72.95,94,9,5.26,2021-10-21 00:49:19
398,Bayir,TR,37.2687,28.2167,48.72,57,6,2.77,2021-10-21 00:49:20
399,Grand Gaube,MU,-20.0064,57.6608,72.0,82,34,1.01,2021-10-21 00:49:21
400,Esfahan,IR,32.6572,51.6776,42.44,25,32,5.39,2021-10-21 00:49:21
401,Axim,GH,4.8699,-2.2405,77.74,87,100,9.1,2021-10-21 00:49:22
402,Venado,MX,22.9333,-101.0833,68.86,57,1,10.07,2021-10-21 00:46:12
403,Timbiqui,CO,2.7717,-77.6654,75.09,92,81,1.97,2021-10-21 00:49:22
404,Khonsa,IN,27.0167,95.5667,66.74,99,100,2.06,2021-10-21 00:49:23
405,Natal,BR,-5.795,-35.2094,81.25,83,20,6.91,2021-10-21 00:49:24
406,Arcachon,FR,44.5875,-1.0519,62.92,63,0,19.57,2021-10-21 00:49:24
407,San Juan,AR,-31.5375,-68.5364,76.98,16,0,7.45,2021-10-21 00:49:24
408,Adeje,ES,28.1227,-16.726,77.49,49,20,10.36,2021-10-21 00:49:25
409,Swinford,IE,53.95,-8.95,46.33,74,99,15.17,2021-10-21 00:49:25
410,Dudinka,RU,69.4058,86.1778,21.34,90,95,10.42,2021-10-21 00:49:26
411,Saint-Pierre,RE,-21.3393,55.4781,73.04,66,90,4.61,2021-10-21 00:49:26
412,Cardston,CA,49.2,-113.3019,55.69,41,8,6.91,2021-10-21 00:45:26
413,Hasanabad,IR,36.5465,61.0543,59.22,55,55,6.91,2021-10-21 00:49:27
414,Dunedin,NZ,-45.8742,170.5036,55.8,46,100,8.01,2021-10-21 00:47:40
415,Mayskiy,RU,47.6931,40.1025,44.44,72,70,7.58,2021-10-21 00:49:28
416,San Jose,US,37.3394,-121.895,67.26,80,90,10.36,2021-10-21 00:45:10
417,Filingue,NE,14.3521,3.3168,88.21,42,78,8.77,2021-10-21 00:49:29
418,Westport,US,41.1415,-73.3579,71.74,75,1,5.01,2021-10-21 00:49:29
419,Tall Kayf,TR,37.0833,41.0667,60.19,31,20,3.44,2021-10-21 00:49:30
420,Buraydah,SA,26.326,43.975,72.05,32,0,8.05,2021-10-21 00:49:30
421,Lunca Muresului,RO,46.4333,23.9,37.45,75,9,2.33,2021-10-21 00:49:33
422,Svetlogorsk,BY,52.6333,29.7333,52.32,62,100,15.93,2021-10-21 00:49:34
423,Husavik,IS,66.0449,-17.3389,24.71,70,96,14.03,2021-10-21 00:49:34
424,Niamey,NE,13.5137,2.1098,88.09,51,0,8.05,2021-10-21 00:49:35
425,Mehamn,NO,71.0357,27.8492,34.12,61,100,25.28,2021-10-21 00:49:26
426,Udimskiy,RU,61.1417,45.9144,30.2,80,100,14.0,2021-10-21 00:49:37
427,Kotido,UG,2.9806,34.1331,73.35,55,99,16.82,2021-10-21 00:49:38
428,Ellisras,ZA,-23.6649,27.7443,58.5,68,54,4.23,2021-10-21 00:49:38
429,Kindu,CD,-2.95,25.95,68.47,99,91,2.21,2021-10-21 00:49:39
430,Nemuro,JP,43.3236,145.575,48.63,66,100,15.41,2021-10-21 00:49:39
431,Dukat,RU,62.55,155.55,-0.62,87,11,3.36,2021-10-21 00:49:40
432,Smithfield,US,41.922,-71.5495,62.22,88,1,0.0,2021-10-21 00:46:28
433,Baracoa,CU,20.3467,-74.4958,78.8,85,38,5.7,2021-10-21 00:49:40
434,Biltine,TD,14.5333,20.9167,85.19,19,96,12.3,2021-10-21 00:49:41
435,Shimoda,JP,34.6667,138.95,64.76,56,100,11.77,2021-10-21 00:49:41
436,Clyde River,CA,70.4692,-68.5914,24.17,91,97,7.96,2021-10-21 00:49:41
437,Zaysan,KZ,47.4667,84.8667,46.4,31,60,4.61,2021-10-21 00:49:42
438,Kanniyakumari,IN,8.0833,77.5667,76.55,87,100,11.56,2021-10-21 00:49:42
439,Anadyr,RU,64.75,177.4833,23.5,93,90,13.42,2021-10-21 00:49:43
440,Pangai,TO,-19.8,-174.35,76.53,65,100,21.16,2021-10-21 00:49:43
441,Aschersleben,DE,51.75,11.4667,62.94,67,100,21.92,2021-10-21 00:49:44
442,Faya,SA,18.3851,42.4509,60.91,30,26,6.13,2021-10-21 00:49:29
443,Biak,ID,-0.9131,122.8766,83.57,64,32,3.49,2021-10-21 00:49:45
444,Baruun-Urt,MN,46.6806,113.2792,34.34,59,0,7.76,2021-10-21 00:49:45
445,Hambantota,LK,6.1241,81.1185,75.54,100,20,3.44,2021-10-21 00:49:24
446,Bilibino,RU,68.0546,166.4372,4.01,94,100,2.53,2021-10-21 00:49:46
447,Jablah,SY,35.3614,35.9256,64.69,77,20,3.44,2021-10-21 00:49:46
448,Princesa Isabel,BR,-7.7367,-37.9933,78.46,50,93,9.01,2021-10-21 00:49:47
449,Novoorsk,RU,51.381,58.9813,32.65,68,100,15.66,2021-10-21 00:49:47
450,Sao Felix Do Xingu,BR,-6.6447,-51.995,72.9,96,45,0.87,2021-10-21 00:49:47
451,Creel,MX,27.75,-107.6333,55.71,55,90,5.7,2021-10-21 00:49:48
452,Aktas,KZ,49.7789,72.9608,44.35,45,89,10.65,2021-10-21 00:49:48
453,Tsiroanomandidy,MG,-18.7667,46.0333,71.04,64,96,2.37,2021-10-21 00:49:49
454,Hamilton,US,39.1834,-84.5333,64.04,72,1,3.44,2021-10-21 00:49:49
455,Nizhnevartovsk,RU,60.9344,76.5531,35.62,80,0,4.47,2021-10-21 00:49:50
456,Bubaque,GW,11.2833,-15.8333,82.04,78,100,11.61,2021-10-21 00:49:34
457,Antanifotsy,MG,-19.65,47.3167,55.31,93,74,1.83,2021-10-21 00:49:50
458,Karaton,ID,-6.3424,106.1045,83.95,76,84,2.89,2021-10-21 00:49:51
459,Beloha,MG,-25.1667,45.05,68.58,91,99,5.44,2021-10-21 00:49:51
460,Mazara Del Vallo,IT,37.6641,12.588,69.01,78,0,11.3,2021-10-21 00:49:52
461,Matamoros,MX,25.5333,-103.25,80.26,35,0,6.6,2021-10-21 00:49:52
462,Chake Chake,TZ,-5.2459,39.7666,73.8,89,90,6.89,2021-10-21 00:49:53
463,Gweru,ZW,-19.45,29.8167,53.85,86,1,4.83,2021-10-21 00:49:54
464,Zhezkazgan,KZ,47.8043,67.7144,43.41,56,100,14.34,2021-10-21 00:49:55
465,Laguna,US,38.421,-121.4238,70.65,43,40,3.44,2021-10-21 00:49:55
466,Streator,US,41.1209,-88.8354,70.61,72,100,1.01,2021-10-21 00:49:55
467,Lodwar,KE,3.1191,35.5973,81.23,52,32,16.58,2021-10-21 00:49:56
468,Tonj,SS,7.2737,28.6822,70.83,95,100,5.35,2021-10-21 00:49:56
469,Muskogee,US,35.5834,-95.3336,69.96,90,100,3.15,2021-10-21 00:49:57
470,Vizinga,RU,61.0749,50.1031,28.09,80,100,8.37,2021-10-21 00:49:57
471,Havre-Saint-Pierre,CA,50.2334,-63.5986,48.2,81,90,4.61,2021-10-21 00:49:57
472,Sao Joao Da Barra,BR,-21.6403,-41.0511,65.21,90,100,13.02,2021-10-21 00:49:58
473,Barugo,PH,11.3242,124.7383,84.24,74,96,2.33,2021-10-21 00:49:58
474,Carnduff,CA,49.1667,-101.8009,36.25,51,100,4.99,2021-10-21 00:49:59
475,Insar,RU,53.8653,44.3738,32.86,92,100,18.01,2021-10-21 00:49:59
476,Formosa,AR,-26.1775,-58.1781,69.78,56,0,4.61,2021-10-21 00:50:00
477,San Patricio,US,28.017,-97.5169,81.01,72,9,7.05,2021-10-21 00:50:00
478,Sun City West,US,33.662,-112.3413,83.8,29,1,1.01,2021-10-21 00:49:17
479,Ronneby,SE,56.21,15.276,52.3,100,90,8.05,2021-10-21 00:50:01
480,Oriximina,BR,-1.7656,-55.8661,80.47,73,99,3.36,2021-10-21 00:50:02
481,Minsk,BY,53.9,27.5667,51.55,75,100,17.09,2021-10-21 00:48:50
482,Mandapam,IN,9.2833,79.1167,81.12,79,100,9.86,2021-10-21 00:50:04
483,Guerrero Negro,MX,27.9769,-114.0611,66.43,73,0,13.31,2021-10-21 00:45:12
484,Businga,CD,3.3333,20.8833,69.89,100,99,0.63,2021-10-21 00:50:05
485,Cap Malheureux,MU,-19.9842,57.6142,72.09,82,25,1.01,2021-10-21 00:50:06
486,Hit,IQ,33.6416,42.8251,68.9,35,0,9.48,2021-10-21 00:50:07
487,Poum,NC,-20.2333,164.0167,68.52,88,100,14.52,2021-10-21 00:50:08
488,Ballina,AU,-28.8667,153.5667,70.79,89,90,5.75,2021-10-21 00:50:08
489,Salalah,OM,17.0151,54.0924,75.56,79,99,4.9,2021-10-21 00:50:09
490,Kanye,BW,-24.9667,25.3327,57.87,60,100,8.77,2021-10-21 00:50:09
491,Changji,CN,44.0167,87.3167,43.59,52,0,6.71,2021-10-21 00:50:10
492,Puerto Del Rosario,ES,28.5004,-13.8627,71.35,88,0,14.97,2021-10-21 00:50:10
493,Lianzhou,CN,24.7811,112.3825,56.1,90,100,4.79,2021-10-21 00:50:10
494,Raga,SS,8.4596,25.678,69.96,93,100,8.39,2021-10-21 00:50:11
495,Pontianak,ID,-0.0333,109.3333,76.98,94,40,4.61,2021-10-21 00:50:11
496,Rehoboth,NA,-23.3167,17.0833,63.7,73,100,4.54,2021-10-21 00:50:12
497,Riyadh,SA,24.6877,46.7219,73.54,27,0,6.96,2021-10-21 00:49:36
498,Yabassi,CM,4.457,9.9682,72.46,98,100,1.72,2021-10-21 00:50:12
499,Chilakalurupet,IN,16.0833,80.1667,75.25,83,92,4.56,2021-10-21 00:50:13
500,Fare,PF,-16.7,-151.0167,79.14,78,27,9.42,2021-10-21 00:50:13
501,Kaeo,NZ,-35.1,173.7833,60.33,97,100,9.26,2021-10-21 00:50:14
502,Tupik,RU,54.4253,119.9327,31.89,63,87,3.31,2021-10-21 00:50:16
503,Athabasca,CA,54.7169,-113.2854,52.63,38,0,12.48,2021-10-21 00:50:18
504,Rio Grande,BR,-32.035,-52.0986,58.95,65,17,12.19,2021-10-21 00:45:34
505,Port Augusta,AU,-32.5,137.7667,77.7,35,0,7.99,2021-10-21 00:50:27
506,Akom,CM,2.6678,12.7109,67.59,99,100,1.95,2021-10-21 00:50:28
507,Hay River,CA,60.8156,-115.7999,44.58,57,40,8.05,2021-10-21 00:50:29
508,Minna,NG,9.6139,6.5569,73.65,94,97,3.06,2021-10-21 00:50:30
509,Cajati,BR,-24.7361,-48.1228,60.4,99,100,1.88,2021-10-21 00:50:30
510,Bathsheba,BB,13.2167,-59.5167,83.01,78,40,19.57,2021-10-21 00:50:31
511,Gol,NO,60.7014,8.9457,45.57,97,100,4.25,2021-10-21 00:50:31
512,Wuwei,CN,37.9281,102.6414,42.98,40,1,1.28,2021-10-21 00:50:32
513,Bend,US,44.0582,-121.3153,52.27,71,90,1.01,2021-10-21 00:50:32
514,Heihe,CN,50.2441,127.4902,30.78,45,99,5.66,2021-10-21 00:50:33
515,Qurayyat,SA,31.3318,37.3428,60.98,77,0,6.91,2021-10-21 00:50:33
516,Taunggyi,MM,20.7833,97.0333,64.11,94,42,4.38,2021-10-21 00:50:34
517,Tiznit,MA,29.5833,-9.5,71.49,30,42,3.89,2021-10-21 00:50:34
518,Manicore,BR,-5.8092,-61.3003,80.58,71,82,0.89,2021-10-21 00:50:34
519,Kapoeta,SS,4.7717,33.5903,81.36,48,100,10.51,2021-10-21 00:50:35
520,Tuatapere,NZ,-46.1333,167.6833,55.04,52,1,5.77,2021-10-21 00:50:36
521,Puerto Rondon,CO,6.2805,-71.1,78.19,80,11,4.05,2021-10-21 00:50:36
522,Tefe,BR,-3.3542,-64.7114,73.06,98,100,1.59,2021-10-21 00:50:37
523,Akyab,MM,20.15,92.9,80.55,85,96,3.51,2021-10-21 00:50:37
524,Belomorsk,RU,64.5232,34.7668,31.44,96,100,11.07,2021-10-21 00:50:38
525,Sao Geraldo Do Araguaia,BR,-6.4006,-48.555,80.62,68,89,1.86,2021-10-21 00:50:38
526,Kieta,PG,-6.2167,155.6333,85.93,68,76,4.68,2021-10-21 00:50:39
527,Biloela,AU,-24.4167,150.5,82.04,46,100,10.63,2021-10-21 00:50:39
528,Buin,CL,-33.7333,-70.75,62.74,77,0,2.75,2021-10-21 00:46:31
529,Baiyin,CN,36.5583,104.2081,34.68,35,7,1.86,2021-10-21 00:50:40
530,Greece,US,43.2098,-77.6931,61.36,73,75,4.0,2021-10-21 00:50:40
531,Pontes E Lacerda,BR,-15.2261,-59.3353,77.61,66,22,3.31,2021-10-21 00:50:41
532,Makakilo City,US,21.3469,-158.0858,86.32,41,1,9.22,2021-10-21 00:50:41
533,Uinskoye,RU,56.8817,56.5813,28.83,89,11,4.65,2021-10-21 00:50:41
534,Beira,MZ,-19.8436,34.8389,71.69,78,20,8.01,2021-10-21 00:50:42
535,Wewak,PG,-3.5534,143.6268,78.96,83,100,3.58,2021-10-21 00:50:43
536,Kyren,RU,51.6828,102.1408,34.9,62,4,2.68,2021-10-21 00:50:44
537,Portland,US,45.5234,-122.6762,61.38,74,90,1.01,2021-10-21 00:46:12
538,Boende,CD,-0.2167,20.8667,69.28,99,97,1.86,2021-10-21 00:50:45
539,Kayerkan,RU,69.3497,87.7602,22.17,94,100,14.09,2021-10-21 00:50:45
540,Las Vegas,US,36.175,-115.1372,74.08,23,1,3.44,2021-10-21 00:49:21
541,Skovorodino,RU,53.9833,123.9167,35.98,55,22,3.0,2021-10-21 00:50:46
542,Ronne,DK,55.1009,14.7066,57.11,88,20,14.97,2021-10-21 00:50:47
543,Altay,CN,47.8667,88.1167,39.97,41,2,8.99,2021-10-21 00:50:47
544,Port Moresby,PG,-9.4431,147.1797,87.22,70,20,5.75,2021-10-21 00:46:51
545,Ponta Delgada,PT,37.7333,-25.6667,61.52,82,20,5.75,2021-10-21 00:50:48
546,Port Blair,IN,11.6667,92.75,81.39,80,100,4.54,2021-10-21 00:50:49
547,Issia,CI,6.4922,-6.5856,71.24,100,99,2.68,2021-10-21 00:50:49
548,Ambanja,MG,-13.6833,48.45,71.38,87,67,2.39,2021-10-21 00:50:49
549,Zalantun,CN,48.0,122.7167,40.44,51,94,5.44,2021-10-21 00:50:50
550,Pangnirtung,CA,66.1451,-65.7125,28.29,78,16,5.21,2021-10-21 00:50:50
551,Sorochinsk,RU,52.4338,53.1583,31.46,90,94,9.64,2021-10-21 00:50:51
552,Nelspruit,ZA,-25.4745,30.9703,55.69,87,5,0.0,2021-10-21 00:50:51
553,Muzhi,RU,65.3667,64.6667,29.61,87,92,3.2,2021-10-21 00:50:52
554,Thabazimbi,ZA,-24.5917,27.4116,58.21,62,96,4.29,2021-10-21 00:50:52
555,Sortavala,RU,61.7053,30.6918,48.76,98,100,11.48,2021-10-21 00:50:53
556,Kloulklubed,PW,7.0419,134.2556,82.08,71,42,2.62,2021-10-21 00:50:53
557,Paita,PE,-5.0892,-81.1144,65.55,86,69,12.8,2021-10-21 00:50:54
558,Itoman,JP,26.1247,127.6694,75.97,86,75,13.8,2021-10-21 00:50:54
559,Yar-Sale,RU,66.8333,70.8333,28.13,86,25,6.42,2021-10-21 00:50:54
560,Jumla,NP,29.2747,82.1838,50.88,85,2,3.22,2021-10-21 00:50:55
561,Vestmanna,FO,62.1564,-7.1664,40.12,75,75,23.02,2021-10-21 00:50:55
562,Balakhninskiy,RU,58.0106,114.2769,33.12,94,100,4.59,2021-10-21 00:50:56
563,Salinopolis,BR,-0.6136,-47.3561,79.97,81,25,9.78,2021-10-21 00:50:56
564,Ust-Tsilma,RU,65.441,52.1498,30.36,83,100,4.63,2021-10-21 00:50:57
565,Luena,AO,-11.7833,19.9167,61.66,95,90,0.67,2021-10-21 00:50:57
566,Nongpoh,IN,25.9,91.8833,69.37,97,100,2.04,2021-10-21 00:50:58
567,Boden,SE,65.8252,21.6886,30.2,94,100,9.42,2021-10-21 00:50:58
568,Orange,US,33.7,-117.7675,77.34,63,40,1.01,2021-10-21 00:49:00
569,Antalaha,MG,-14.9003,50.2788,66.88,84,23,4.79,2021-10-21 00:50:59
570,Colonia,DE,50.9333,6.95,63.19,80,40,1.99,2021-10-21 00:50:02
571,Chicama,PE,-7.8447,-79.1469,59.54,81,76,6.26,2021-10-21 00:51:00
572,San Rafael,AR,-34.6177,-68.3301,72.28,20,0,11.41,2021-10-21 00:51:01
573,Sao Jose Da Coroa Grande,BR,-8.8978,-35.1478,76.93,85,11,7.87,2021-10-21 00:51:02
574,Bonthe,SL,7.5264,-12.505,78.42,86,100,7.7,2021-10-21 00:51:03
575,Toora-Khem,RU,52.4675,96.11,25.18,82,6,2.26,2021-10-21 00:51:03
576,Viedma,AR,-40.8135,-62.9967,59.58,61,0,15.35,2021-10-21 00:49:09
577,Myskhako,RU,44.6714,37.7433,42.58,58,10,4.7,2021-10-21 00:51:04
578,Corozal,CO,9.3151,-75.2928,75.58,94,51,6.53,2021-10-21 00:51:05
579,Karpogory,RU,64.0019,44.4451,29.66,78,100,14.79,2021-10-21 00:51:05
580,Tigil,RU,57.8,158.6667,23.83,67,61,11.16,2021-10-21 00:51:06
581,Dublin,US,37.7021,-121.9358,65.12,83,90,1.99,2021-10-21 00:51:06
582,Sakakah,SA,29.9697,40.2064,67.57,39,3,3.29,2021-10-21 00:51:06
583,Abu Samrah,SY,35.3029,37.1841,61.27,72,0,3.56,2021-10-21 00:51:07
584,Katherine,AU,-14.4667,132.2667,93.52,43,41,11.5,2021-10-21 00:51:07
585,Orodara,BF,10.9492,-4.9342,75.58,86,100,4.29,2021-10-21 00:51:08
586,Agua Verde,MX,22.9,-106.05,85.12,82,0,8.05,2021-10-21 00:51:08
587,Vatutinki,RU,55.4983,37.3325,45.03,96,90,15.66,2021-10-21 00:51:09
588,Margate,GB,51.3813,1.3862,51.69,91,100,10.0,2021-10-21 00:51:09
589,Bac Lieu,VN,9.285,105.7244,78.01,87,100,5.95,2021-10-21 00:51:10
590,Aviles,ES,43.5547,-5.9248,62.76,65,90,17.0,2021-10-21 00:47:19
591,West Bay,KY,19.3667,-81.4167,84.27,79,20,3.0,2021-10-21 00:47:57
592,Dingli,MT,35.8614,14.3822,62.82,94,0,2.3,2021-10-21 00:51:11
593,Port-Cartier,CA,50.0334,-66.8654,48.74,86,100,3.06,2021-10-21 00:51:11
594,Hamadan,IR,34.7992,48.5146,47.07,72,23,4.21,2021-10-21 00:51:12
595,Nuuk,GL,64.1835,-51.7216,27.88,100,0,8.99,2021-10-21 00:51:12
596,Lerwick,GB,60.1545,-1.1494,42.8,61,58,32.03,2021-10-21 00:51:13
597,Easton,US,40.6884,-75.2207,66.09,72,1,5.75,2021-10-21 00:50:09
598,Saa,CM,4.3667,11.45,67.39,98,100,1.03,2021-10-21 00:51:22
599,Bonavista,CA,48.6499,-53.1147,49.12,95,100,18.99,2021-10-21 00:51:23
600,De Aar,ZA,-30.6497,24.0123,64.42,29,100,10.31,2021-10-21 00:51:23
601,Tupaciguara,BR,-18.5922,-48.705,68.92,69,59,5.73,2021-10-21 00:51:17
602,Ambon,ID,-3.6954,128.1814,86.14,84,20,3.44,2021-10-21 00:51:24
603,Mount Gambier,AU,-37.8333,140.7667,67.91,64,40,11.5,2021-10-21 00:51:24
604,Kamyshevatskaya,RU,46.4132,37.9563,50.09,63,100,12.39,2021-10-21 00:51:24
605,Show Low,US,34.2542,-110.0298,61.48,37,1,4.61,2021-10-21 00:51:25
606,Fort-Shevchenko,KZ,44.5086,50.263,46.58,55,41,14.45,2021-10-21 00:51:26
607,Chapais,CA,49.7834,-74.8492,38.98,96,100,7.99,2021-10-21 00:51:27
608,Jacksonville,US,30.3322,-81.6556,73.98,78,75,4.61,2021-10-21 00:49:05
609,Cockburn Town,TC,21.4612,-71.1419,82.31,78,11,17.36,2021-10-21 00:46:29
610,Blythe,US,33.6103,-114.5964,80.04,30,2,6.06,2021-10-21 00:51:28
611,Pakxan,LA,18.3778,103.6601,79.77,81,52,1.43,2021-10-21 00:51:28
612,Keningau,MY,5.3378,116.1602,77.45,80,100,0.51,2021-10-21 00:51:29
613,The Pas,CA,53.8251,-101.2541,32.02,74,1,2.3,2021-10-21 00:51:29
614,Agnibilekrou,CI,7.1344,-3.2047,71.02,100,87,2.62,2021-10-21 00:51:30
615,Rawson,AR,-43.3002,-65.1023,66.87,40,100,22.46,2021-10-21 00:50:39
616,North Platte,US,41.1239,-100.7654,46.29,67,1,1.01,2021-10-21 00:51:31
617,Udachnyy,RU,66.4167,112.4,35.73,96,100,17.52,2021-10-21 00:51:31
618,Leh,IN,34.1667,77.5833,39.27,49,0,2.73,2021-10-21 00:51:31
619,Turochak,RU,52.2576,87.1224,35.15,68,20,3.67,2021-10-21 00:51:32
620,Angoche,MZ,-16.2325,39.9086,74.26,73,100,11.23,2021-10-21 00:51:33
621,Christchurch,NZ,-43.5333,172.6333,60.33,53,51,5.01,2021-10-21 00:49:19
622,Kousseri,CM,12.0769,15.0306,78.76,69,100,5.75,2021-10-21 00:51:34
623,Lata,PT,40.1629,-8.3327,61.81,97,100,2.1,2021-10-21 00:51:34
624,Vredendal,ZA,-31.6683,18.5012,62.44,62,75,1.79,2021-10-21 00:51:35
625,Neryungri,RU,56.6709,124.6491,27.73,85,97,7.67,2021-10-21 00:51:35
626,Kargasok,RU,59.0556,80.8572,37.18,86,100,7.58,2021-10-21 00:51:35
627,Popondetta,PG,-8.7537,148.2534,90.73,51,100,5.39,2021-10-21 00:51:36
628,Acapulco,MX,16.8634,-99.8901,84.02,79,90,3.44,2021-10-21 00:50:05
629,Arroyo,ES,41.6096,-4.7969,56.14,81,0,9.22,2021-10-21 00:51:36
630,Bedesa,ET,8.9,40.7833,60.1,40,79,1.68,2021-10-21 00:51:37
631,Domoni,KM,-12.2569,44.5319,75.15,82,33,1.12,2021-10-21 00:51:37
632,Springdale,US,36.1867,-94.1288,67.73,96,90,5.01,2021-10-21 00:51:38
633,Wladyslawowo,PL,54.7909,18.4009,60.94,73,100,20.78,2021-10-21 00:51:38
634,Paidha,UG,2.4167,30.9855,61.43,89,100,4.23,2021-10-21 00:51:39
635,Alyangula,AU,-13.8483,136.4192,87.67,66,90,11.5,2021-10-21 00:51:39
636,Macas,EC,-2.3167,-78.1167,67.46,99,99,1.41,2021-10-21 00:51:40
637,Bonnyville,CA,54.2668,-110.735,46.2,28,0,12.75,2021-10-21 00:51:40
638,Benghazi,LY,32.1167,20.0667,69.03,66,0,11.72,2021-10-21 00:51:40
639,Spornoye,RU,50.8448,37.2913,48.22,58,100,20.4,2021-10-21 00:51:41
640,Iskateley,RU,67.6803,53.1512,28.74,75,100,8.66,2021-10-21 00:51:41
641,Vanimo,PG,-2.6741,141.3028,77.95,90,100,4.63,2021-10-21 00:51:42
642,Lasa,IT,46.6166,10.7002,52.63,92,100,6.15,2021-10-21 00:51:42
643,Pecos,US,31.4229,-103.4932,86.83,22,1,3.44,2021-10-21 00:51:43
644,Hami,CN,42.8,93.45,55.29,20,100,7.67,2021-10-21 00:51:43
645,Kizhinga,RU,51.8462,109.9097,32.76,77,8,2.62,2021-10-21 00:51:44
646,Sisimiut,GL,66.9395,-53.6735,27.16,82,68,6.64,2021-10-21 00:51:44
647,Doha,QA,25.2867,51.5333,84.18,63,0,12.66,2021-10-21 00:50:19
648,Port Macquarie,AU,-31.4333,152.9167,72.9,65,25,6.02,2021-10-21 00:47:05
649,Kikwit,CD,-5.041,18.8162,69.24,99,98,1.48,2021-10-21 00:51:45
650,Sayyan,YE,15.1718,44.3244,55.96,38,95,8.1,2021-10-21 00:51:45
651,Jhelum,PK,32.9331,73.7264,69.1,44,0,2.15,2021-10-21 00:51:46
652,Ambilobe,MG,-13.2,49.05,68.2,86,100,2.84,2021-10-21 00:51:47
653,Mayo,US,38.8876,-76.5119,66.22,80,1,0.0,2021-10-21 00:50:25
654,Qaqortoq,GL,60.7167,-46.0333,34.95,37,0,5.39,2021-10-21 00:51:47
655,Kaduna,NG,10.5222,7.4383,71.94,86,98,2.06,2021-10-21 00:51:48
656,South Charleston,US,38.3684,-81.6996,61.54,89,1,0.0,2021-10-21 00:51:48
657,Port Hardy,CA,50.6996,-127.4199,51.98,93,75,6.91,2021-10-21 00:51:49
658,Tacna,PE,-18.0056,-70.2483,54.5,78,100,2.01,2021-10-21 00:51:49
659,Tessalit,ML,20.1986,1.0114,73.8,25,7,8.97,2021-10-21 00:51:50
660,Sihora,IN,23.4833,80.1167,64.65,63,8,4.52,2021-10-21 00:51:50
661,Maarianhamina,AX,60.0973,19.9348,51.66,66,0,12.66,2021-10-21 00:51:51
662,Lazaro Cardenas,MX,17.9583,-102.2,80.76,81,91,1.9,2021-10-21 00:51:51
663,Sorong,ID,-0.8833,131.25,81.05,80,100,3.85,2021-10-21 00:50:06
664,Canaries,ES,28.0,-15.5,64.76,83,20,1.99,2021-10-21 00:51:52
665,Hutang,CN,31.5333,119.4833,51.93,73,71,7.29,2021-10-21 00:51:53
666,Kurya,RU,51.6003,82.2888,47.43,36,100,9.84,2021-10-21 00:51:53
667,Lorengau,PG,-2.0226,147.2712,84.36,72,76,7.52,2021-10-21 00:51:54
668,Merauke,ID,-8.4667,140.3333,88.14,61,100,2.62,2021-10-21 00:51:54
669,Merritt,CA,50.1123,-120.7942,50.45,85,31,6.33,2021-10-21 00:51:54
670,Soe,ID,-9.8607,124.284,82.83,40,31,3.76,2021-10-21 00:51:55
671,Sorland,NO,67.667,12.6934,37.02,97,100,19.42,2021-10-21 00:51:55
672,Tukrah,LY,32.5341,20.5791,66.04,76,0,8.5,2021-10-21 00:51:56
673,Bedele,ET,8.456,36.353,50.49,78,11,2.24,2021-10-21 00:51:56
674,Victor Harbor,AU,-35.5667,138.6167,70.81,68,60,1.01,2021-10-21 00:51:57
675,Dawan,CN,24.34,112.948,59.5,91,100,5.84,2021-10-21 00:51:57
676,Conway,US,35.0887,-92.4421,71.53,80,90,0.0,2021-10-21 00:47:05
677,Baillif,GP,16.0202,-61.7463,78.3,77,5,12.77,2021-10-21 00:51:58
678,Yinchuan,CN,38.4681,106.2731,46.65,22,0,0.67,2021-10-21 00:51:58
679,Yumen,CN,40.2833,97.2,40.5,27,17,6.4,2021-10-21 00:51:59
680,Ushtobe,KZ,45.2514,77.9838,55.51,29,100,7.47,2021-10-21 00:51:59
681,Baykit,RU,61.67,96.37,35.15,89,100,3.96,2021-10-21 00:51:59
682,Ouahigouya,BF,13.5828,-2.4216,84.52,50,68,10.07,2021-10-21 00:52:00
683,Gidole,ET,5.65,37.3667,57.92,76,99,2.68,2021-10-21 00:52:00
684,Khuzdar,PK,27.7384,66.6434,64.06,29,0,4.34,2021-10-21 00:52:01
685,Russell,US,32.3502,-85.1999,65.97,86,1,0.0,2021-10-21 00:52:02
686,Beyneu,KZ,45.3167,55.2,39.97,66,19,11.16,2021-10-21 00:52:03
687,Zhangjiakou,CN,40.81,114.8794,40.86,31,0,6.44,2021-10-21 00:52:04
688,Aars,DK,56.804,9.5144,51.94,82,100,11.79,2021-10-21 00:52:05
689,Kashi,CN,39.4547,75.9797,56.26,40,20,8.95,2021-10-21 00:52:05
690,Alamogordo,US,32.8995,-105.9603,69.15,25,1,3.44,2021-10-21 00:51:26
691,Punta De Bombon,PE,-17.1717,-71.7931,63.05,80,100,6.15,2021-10-21 00:52:06
